[{"name":"boarding down the dunes. Face-first, on your stomach is way faster than standingalthough you do end up with sand in every orifice","description":"","url":"http:\/\/farm8.staticflickr.com\/7436\/11303871573_0567c127fb_o.jpg","location":{"lat":-14.065901,"lng":-75.744103},"date":"2012-11-27 17:04:52"},{"name":"Cafe Restaurant FIGARO \/ ???????? ????","description":"This picture I took in Minami-Aoyama, Minato-Ward, Tokyo.","url":"http:\/\/farm6.staticflickr.com\/5501\/11303442694_c7c59cc6e4_o.jpg","location":{"lat":35.662944,"lng":139.715752},"date":"2013-12-07 17:48:20"},{"name":"morning in java indonesia","description":"","url":"http:\/\/farm4.staticflickr.com\/3776\/11303363384_5151c177bf_o.jpg","location":{"lat":-7.950436,"lng":112.532958},"date":"2013-08-25 05:18:34"},{"name":"Good memories","description":"Sometimes I love photos more than I should. This is one of them. From Disneyland in Anaheim, CA.","url":"http:\/\/farm6.staticflickr.com\/5502\/11301608655_eb2358c37c_o.jpg","location":{"lat":33.811039,"lng":-117.920787},"date":"2013-11-28 22:42:41"},{"name":"Wrecked","description":"Portfolio | Tumblr","url":"http:\/\/farm3.staticflickr.com\/2855\/11300147325_254b6de063_o.jpg","location":{"lat":40.707769,"lng":-73.999609},"date":"2013-12-09 18:44:15"},{"name":"Park Row","description":"Portfolio | Tumblr","url":"http:\/\/farm4.staticflickr.com\/3745\/11300173206_f7f087cb4b_o.jpg","location":{"lat":40.711297,"lng":-74.008684},"date":"2013-12-09 15:37:25"},{"name":"Beautiful city of Zurich","description":"What a great winter day in Zurich!","url":"http:\/\/farm8.staticflickr.com\/7346\/11297216373_f962532ea9_o.jpg","location":{"lat":47.367199,"lng":8.53981},"date":"2013-12-08 04:09:05"},{"name":"***","description":"","url":"http:\/\/farm3.staticflickr.com\/2815\/11296963223_0dc4144a66_o.jpg","location":{"lat":54.223034,"lng":37.804161},"date":"2010-05-02 17:04:37"},{"name":"Cala El Corralete","description":"Junto al faro de Cabo de Gata","url":"http:\/\/farm3.staticflickr.com\/2892\/11296233534_4f96d22935_o.jpg","location":{"lat":36.725195,"lng":-2.194175},"date":"2013-11-27 11:42:06"},{"name":"Shot on a cold winter afternoon","description":"","url":"http:\/\/farm4.staticflickr.com\/3731\/11295607045_bec35cfc59_o.jpg","location":{"lat":67.041902,"lng":27.223992},"date":"2013-12-09 22:14:11"},{"name":"Mirando al norte","description":null,"url":"http:\/\/farm8.staticflickr.com\/7418\/11295007986_a7dbd51322_o.jpg","location":{"lat":42.101833,"lng":2.294402},"date":"2013-11-01 15:31:13"},{"name":"Under the Golden Gate Bridge","description":"From the of top Fort Point.","url":"http:\/\/farm4.staticflickr.com\/3830\/11294219453_177042cba7_o.jpg","location":{"lat":37.810631,"lng":-122.477324},"date":"2013-12-07 15:56:42"},{"name":null,"description":"","url":"http:\/\/farm6.staticflickr.com\/5536\/11293523286_f6294efb94_o.jpg","location":{"lat":43.506977,"lng":-0.089778},"date":"2013-12-07 16:44:10"},{"name":"Goodnight Paris","description":"Notre Dame","url":"http:\/\/farm8.staticflickr.com\/7312\/11293242595_69c233a19c_o.jpg","location":{"lat":48.854592,"lng":2.346396},"date":"2011-01-07 18:07:33"},{"name":"Blue hour at Xarco's Beach","description":null,"url":"http:\/\/farm4.staticflickr.com\/3805\/11291422253_d7cb0044c7_o.jpg","location":{"lat":38.490345,"lng":-0.280457},"date":"2013-11-30 17:58:07"},{"name":"Liebknecht ?","description":null,"url":"http:\/\/farm4.staticflickr.com\/3833\/11291514644_03b8449994_o.jpg","location":{"lat":52.521008,"lng":13.406036},"date":"2013-10-30 13:55:13"},{"name":"Desert Bridge","description":"@ Mendoza, Argentina, South America.","url":"http:\/\/farm8.staticflickr.com\/7366\/11288831316_f5844eed7f_o.jpg","location":{"lat":-32.675844,"lng":-69.365635},"date":"2012-12-30 12:31:09"},{"name":"Greenland","description":"Oil on canvas paper, 2009\n(21 x 28 cm \/ 8.3 x 11 in)","url":"http:\/\/farm7.staticflickr.com\/6013\/5915124386_8045c75af1_o.jpg","location":{"lat":43.771291,"lng":11.254296},"date":"2009-01-01 00:00:00"},{"name":"Weser Winter Sunset","description":"","url":"http:\/\/farm8.staticflickr.com\/7290\/11286466713_ccc1a58966_o.jpg","location":{"lat":52.234373,"lng":8.843223},"date":"2013-12-09 09:34:46"},{"name":"The Beauty of the Earth","description":"Washington \/ United States","url":"http:\/\/farm3.staticflickr.com\/2839\/11285960676_f8e291b7d4_o.jpg","location":{"lat":47.037359,"lng":-117.245256},"date":"2012-05-28 07:15:03"},{"name":"Sog River at Sundown","description":"","url":"http:\/\/farm8.staticflickr.com\/7432\/11284806576_f99dd8ed88_o.jpg","location":{"lat":64.132222,"lng":-21.016112},"date":"2013-08-20 02:05:41"},{"name":"Tunnel of Light","description":"","url":"http:\/\/farm3.staticflickr.com\/2826\/11282957964_dda8e4ed18_o.jpg","location":{"lat":36.862269,"lng":-111.374498},"date":"2012-06-03 11:55:07"},{"name":"Sunrise at Seal Rock Campground in Washington by Michael Matti","description":"I\\'m usually more of a sunset person than a morning person but was certainly glad to have caught this sunrise. This was taken at Seal Rock Campground on the edge of Puget Sound in Washington. When I f","url":"http:\/\/farm8.staticflickr.com\/7441\/11281671695_f9eb335119_o.jpg","location":{"lat":47.717269,"lng":-122.886138},"date":"2013-06-22 05:24:21"},{"name":"The View From Manastash Ridge","description":"The sunrise illuminates the Cascades from the Manastash Ridge viewpoint on I-82. The town in the valley is Ellensburg.","url":"http:\/\/farm8.staticflickr.com\/7405\/11281388725_ca8957fb7e_o.jpg","location":{"lat":46.889095,"lng":-120.433062},"date":"2013-12-08 12:42:53"},{"name":"Vancouver Dusk","description":" Follow on Twitter | Like on Facebook | Circle on G+\n \n The Vancouver skyline from Stanley Park around dusk.\n \n ","url":"http:\/\/farm3.staticflickr.com\/2848\/11280474516_49acb4bef8_o.jpg","location":{"lat":49.298297,"lng":-123.117112},"date":"2013-01-02 16:53:27"},{"name":"Road to Sunset","description":"This framed up quite nicely with the rolling hills down the mountainside towards the sunset.","url":"http:\/\/farm4.staticflickr.com\/3818\/11278759023_8c1c89310e_o.jpg","location":{"lat":36.761372,"lng":-121.504325},"date":"2013-12-07 17:43:21"},{"name":"Honeymoon : Zebriskie Point : Las Vegas to Mammoth Via Death Valley","description":"Honeymoon : Las Vegas to Mammoth Via Death Valley","url":"http:\/\/farm8.staticflickr.com\/7442\/11277775535_341d5988c5_o.jpg","location":{"lat":36.420142,"lng":-116.812262},"date":"2013-10-10 21:04:48"},{"name":"one part of the massive walls","description":"","url":"http:\/\/farm8.staticflickr.com\/7377\/11300828215_d7cf15483a_o.jpg","location":{"lat":-5.764487,"lng":-78.448339},"date":"2012-11-10 12:03:11"},{"name":"","description":"","url":"http:\/\/farm3.staticflickr.com\/2838\/11300964783_344801ebc7_o.jpg","location":{"lat":-6.023031,"lng":-77.887412},"date":"2012-11-11 13:00:26"},{"name":"Where Volcano meets the sea (Santorini, Greece)","description":"Yellow\/green water, frozen lava, littel greenery and silence - the usual landscape one can see there. The frozen lava flow seen in the picture is a product of some old (maybe 2-3 centuries old) erupti","url":"http:\/\/farm8.staticflickr.com\/7329\/11294687196_85acd87ef7_o.jpg","location":{"lat":36.400369,"lng":25.390091},"date":"2010-07-01 14:33:21"},{"name":"Shades of grey","description":"Fast approaching winter","url":"http:\/\/farm8.staticflickr.com\/7339\/11286927636_7247dd8d4f_o.jpg","location":{"lat":38.751573,"lng":22.338252},"date":"2013-12-07 12:47:48"},{"name":"Horsecaravanning in Ireland","description":"","url":"http:\/\/farm4.staticflickr.com\/3782\/11239282666_8525858a5a_o.jpg","location":{"lat":52.966074,"lng":-6.183295},"date":"2000-07-13 15:21:25"}]